{"type":"FeatureCollection","features":[{"type":"Feature","geometry":{"type":"Point","coordinates":[149.14001,-35.27363]},"properties":{"type":"static","name":"Ainslie","premises":"Ainslie School"}},{"type":"Feature","geometry":{"type":"Point","coordinates":[149.129,-35.1653]},"properties":{"type":"static","name":"Amaroo","premises":"Amaroo School"}},{"type":"Feature","geometry":{"type":"Point","coordinates":[149.08,-35.256]},"properties":{"type":"static","name":"Aranda","premises":"Aranda Primary"}},{"type":"Feature","geometry":{"type":"Point","coordinates":[149.069655,-35.2389303]},"properties":{"type":"electronic","name":"Belconnen","premises":"Belconnen community centre"}},{"type":"Feature","geometry":{"type":"Point","coordinates":[149.044986,-35.20569]},"properties":{"type":"electronic","name":"Belconnen North","premises":"Flynn community hall"}},{"type":"Feature","geometry":{"type":"Point","coordinates":[149.1397655,-35.1615786]},"properties":{"type":"static","name":"Bonner","premises":"Neville Bonner Primary"}},{"type":"Feature","geometry":{"type":"Point","coordinates":[149.083,-35.4318]},"properties":{"type":"static","name":"Bonython","premises":"Bonython Primary"}},{"type":"Feature","geometry":{"type":"Point","coordinates":[149.1176,-35.44067]},"properties":{"type":"static","name":"Calwell","premises":"Calwell High"}},{"type":"Feature","geometry":{"type":"Point","coordinates":[149.156,-35.2903]},"properties":{"type":"static","name":"Campbell","premises":"Campbell Primary"}},{"type":"Feature","geometry":{"type":"Point","coordinates":[149.042,-35.3564]},"properties":{"type":"static","name":"Chapman","premises":"Chapman Primary"}},{"type":"Feature","geometry":{"type":"Point","coordinates":[149.03,-35.2051]},"properties":{"type":"static","name":"Charnwood","premises":"St Thomas Aquinas Primary"}},{"type":"Feature","geometry":{"type":"Point","coordinates":[149.0370964,-35.1954335]},"properties":{"type":"static","name":"Charnwood","premises":"North Charnwood-Dunlop School"}},{"type":"Feature","geometry":{"type":"Point","coordinates":[149.1225386,-35.4195217]},"properties":{"type":"electronic","name":"Chisholm","premises":"Benham Street"}},{"type":"Feature","geometry":{"type":"Point","coordinates":[149.1290814,-35.2767018]},"properties":{"type":"electronic","name":"City","premises":"Pilgrim House"}},{"type":"Feature","geometry":{"type":"Point","coordinates":[149.1308614,-35.2805169]},"properties":{"type":"electronic","name":"City East","premises":"Canberra Museam & Gallery"}},{"type":"Feature","geometry":{"type":"Point","coordinates":[149.0428484,-35.3226028]},"properties":{"type":"static","name":"Coombs","premises":"Charles Weston School"}},{"type":"Feature","geometry":{"type":"Point","coordinates":[149.0803543,-35.3314386]},"properties":{"type":"static","name":"Curtin","premises":"Curtin Primary"}},{"type":"Feature","geometry":{"type":"Point","coordinates":[149.111,-35.3125]},"properties":{"type":"static","name":"Deakin","premises":"Canberra Girls Grammar (junior school)"}},{"type":"Feature","geometry":{"type":"Point","coordinates":[149.134584,-35.249199]},"properties":{"type":"electronic","name":"Dickson","premises":"WOTSO"}},{"type":"Feature","geometry":{"type":"Point","coordinates":[149.145,-35.2445]},"properties":{"type":"static","name":"Downer","premises":"Downer community centre"}},{"type":"Feature","geometry":{"type":"Point","coordinates":[149.032,-35.3347]},"properties":{"type":"static","name":"Duffy","premises":"Duffy Primary"}},{"type":"Feature","geometry":{"type":"Point","coordinates":[149.076,-35.2071]},"properties":{"type":"static","name":"Evatt","premises":"Evatt Primary"}},{"type":"Feature","geometry":{"type":"Point","coordinates":[149.067,-35.2133]},"properties":{"type":"static","name":"Evatt","premises":"South Miles Franklin Primary"}},{"type":"Feature","geometry":{"type":"Point","coordinates":[149.118,-35.4044]},"properties":{"type":"static","name":"Fadden","premises":"Fadden Primary"}},{"type":"Feature","geometry":{"type":"Point","coordinates":[149.107,-35.379]},"properties":{"type":"static","name":"Farrer","premises":"Farrer Primary"}},{"type":"Feature","geometry":{"type":"Point","coordinates":[149.041,-35.224]},"properties":{"type":"static","name":"Florey","premises":"St Francis Xavier College"}},{"type":"Feature","geometry":{"type":"Point","coordinates":[149.143181,-35.1708975]},"properties":{"type":"static","name":"Forde","premises":"Burgmann Anglican School"}},{"type":"Feature","geometry":{"type":"Point","coordinates":[149.043,-35.1918]},"properties":{"type":"static","name":"Fraser","premises":"Fraser Primary"}},{"type":"Feature","geometry":{"type":"Point","coordinates":[149.1007821,-35.3459732]},"properties":{"type":"static","name":"Garran","premises":"Garran Primary"}},{"type":"Feature","geometry":{"type":"Point","coordinates":[149.133,-35.4147]},"properties":{"type":"static","name":"Gilmore","premises":"Gilmore Primary"}},{"type":"Feature","geometry":{"type":"Point","coordinates":[149.094,-35.2137]},"properties":{"type":"static","name":"Giralang","premises":"Giralang Primary"}},{"type":"Feature","geometry":{"type":"Point","coordinates":[149.0901681,-35.4397627]},"properties":{"type":"static","name":"Gordon","premises":"Gordon Primary"}},{"type":"Feature","geometry":{"type":"Point","coordinates":[149.111,-35.4136]},"properties":{"type":"static","name":"Gowrie","premises":"Gowrie Primary"}},{"type":"Feature","geometry":{"type":"Point","coordinates":[149.145,-35.3222]},"properties":{"type":"static","name":"Griffith","premises":"St Edmund's College"}},{"type":"Feature","geometry":{"type":"Point","coordinates":[149.150554,-35.19939]},"properties":{"type":"electronic","name":"Gungahlin East","premises":"Harrison Green"}},{"type":"Feature","geometry":{"type":"Point","coordinates":[149.131182,-35.182273]},"properties":{"type":"electronic","name":"Gungahlin North","premises":"Ruby Apartments"}},{"type":"Feature","geometry":{"type":"Point","coordinates":[149.126341,-35.18484]},"properties":{"type":"electronic","name":"Gungahlin West","premises":"Gungahlin Enclosed Oval"}},{"type":"Feature","geometry":{"type":"Point","coordinates":[149.069322,-35.167529]},"properties":{"type":"static","name":"Hall","premises":"Hall School museum"}},{"type":"Feature","geometry":{"type":"Point","coordinates":[149.05,-35.3348]},"properties":{"type":"static","name":"Holder","premises":"St Jude's Primary"}},{"type":"Feature","geometry":{"type":"Point","coordinates":[149.02497,-35.22694]},"properties":{"type":"static","name":"Holt","premises":"Kingsford Smith School"}},{"type":"Feature","geometry":{"type":"Point","coordinates":[149.0910366,-35.332175]},"properties":{"type":"static","name":"Hughes","premises":"Hughes Primary"}},{"type":"Feature","geometry":{"type":"Point","coordinates":[149.089,-35.4287]},"properties":{"type":"static","name":"Isabella Plains","premises":"Isabella Plains Early Childhood School"}},{"type":"Feature","geometry":{"type":"Point","coordinates":[149.114,-35.2248]},"properties":{"type":"static","name":"Kaleen","premises":"Kaleen Primary"}},{"type":"Feature","geometry":{"type":"Point","coordinates":[149.102,-35.2351]},"properties":{"type":"static","name":"Kaleen South","premises":"Maribyrnong Primary"}},{"type":"Feature","geometry":{"type":"Point","coordinates":[149.065,-35.3784]},"properties":{"type":"static","name":"Kambah North","premises":"Taylor Primary"}},{"type":"Feature","geometry":{"type":"Point","coordinates":[149.067537,-35.3924756]},"properties":{"type":"static","name":"Kambah South","premises":"Namadgi School"}},{"type":"Feature","geometry":{"type":"Point","coordinates":[149.053,-35.3806]},"properties":{"type":"static","name":"Kambah West","premises":"St Thomas the Apostle Primary"}},{"type":"Feature","geometry":{"type":"Point","coordinates":[149.011977,-35.222749]},"properties":{"type":"electronic","name":"Kippax","premises":"Holt Community Centre"}},{"type":"Feature","geometry":{"type":"Point","coordinates":[149.092544,-35.457536]},"properties":{"type":"electronic","name":"Lanyon","premises":"Lanyon Marketplace"}},{"type":"Feature","geometry":{"type":"Point","coordinates":[149.034,-35.2202]},"properties":{"type":"static","name":"Latham","premises":"Latham Primary"}},{"type":"Feature","geometry":{"type":"Point","coordinates":[149.1307017,-35.2524845]},"properties":{"type":"static","name":"Lyneham","premises":"Lyneham Primary"}},{"type":"Feature","geometry":{"type":"Point","coordinates":[149.076,-35.342]},"properties":{"type":"static","name":"Lyons","premises":"Lyons Early Childhood School"}},{"type":"Feature","geometry":{"type":"Point","coordinates":[149.012,-35.2131]},"properties":{"type":"static","name":"Macgregor","premises":"Macgregor Primary"}},{"type":"Feature","geometry":{"type":"Point","coordinates":[149.059,-35.2501]},"properties":{"type":"static","name":"Macquarie","premises":"Macquarie Primary"}},{"type":"Feature","geometry":{"type":"Point","coordinates":[149.131786,-35.320043]},"properties":{"type":"electronic","name":"Manuka","premises":"Manuka Village"}},{"type":"Feature","geometry":{"type":"Point","coordinates":[149.097,-35.3585]},"properties":{"type":"static","name":"Mawson","premises":"Mawson Primary"}},{"type":"Feature","geometry":{"type":"Point","coordinates":[149.056,-35.2083]},"properties":{"type":"static","name":"Melba","premises":"Mount Rogers Primary"}},{"type":"Feature","geometry":{"type":"Point","coordinates":[149.089,-35.4151]},"properties":{"type":"static","name":"Monash","premises":"Monash Primary"}},{"type":"Feature","geometry":{"type":"Point","coordinates":[149.15,-35.3286]},"properties":{"type":"static","name":"Narrabundah","premises":"Narrabundah Early Childhood School"}},{"type":"Feature","geometry":{"type":"Point","coordinates":[149.112,-35.1692]},"properties":{"type":"static","name":"Ngunnawal","premises":"Ngunnawal Primary"}},{"type":"Feature","geometry":{"type":"Point","coordinates":[149.100229,-35.182043]},"properties":{"type":"static","name":"Nicholls","premises":"Gold Creek School (junior site)"}},{"type":"Feature","geometry":{"type":"Point","coordinates":[149.147,-35.2543]},"properties":{"type":"static","name":"Ainslie North","premises":"North Ainslie Primary"}},{"type":"Feature","geometry":{"type":"Point","coordinates":[149.230606,-35.342222]},"properties":{"type":"static","name":"Oaks Estate","premises":"community hall"}},{"type":"Feature","geometry":{"type":"Point","coordinates":[149.042,-35.2398]},"properties":{"type":"static","name":"Page","premises":"St Matthew's Primary"}},{"type":"Feature","geometry":{"type":"Point","coordinates":[149.12,-35.1975]},"properties":{"type":"static","name":"Palmerston","premises":"Palmerston District Primary"}},{"type":"Feature","geometry":{"type":"Point","coordinates":[149.089,-35.3637]},"properties":{"type":"static","name":"Pearce","premises":"Melrose High"}},{"type":"Feature","geometry":{"type":"Point","coordinates":[149.133,-35.3395]},"properties":{"type":"static","name":"Red Hill","premises":"Red Hill Primary"}},{"type":"Feature","geometry":{"type":"Point","coordinates":[149.114,-35.4287]},"properties":{"type":"static","name":"Richardson","premises":"Richardson Primary"}},{"type":"Feature","geometry":{"type":"Point","coordinates":[149.0384031,-35.2325569]},"properties":{"type":"static","name":"Scullin","premises":"Southern Cross Early Childhood School"}},{"type":"Feature","geometry":{"type":"Point","coordinates":[149.1136016,-35.1522844]},"properties":{"type":"static","name":"Taylor","premises":"Margaret Hendry School"}},{"type":"Feature","geometry":{"type":"Point","coordinates":[149.068,-35.5088]},"properties":{"type":"static","name":"Tharwa","premises":"Tharwa public hall"}},{"type":"Feature","geometry":{"type":"Point","coordinates":[149.124,-35.4477]},"properties":{"type":"static","name":"Theodore","premises":"Theodore Primary"}},{"type":"Feature","geometry":{"type":"Point","coordinates":[149.068781,-35.416611]},"properties":{"type":"electronic","name":"Tuggeranong","premises":"Salvation Army hall"}},{"type":"Feature","geometry":{"type":"Point","coordinates":[149.126,-35.265]},"properties":{"type":"static","name":"Turner","premises":"Turner School"}},{"type":"Feature","geometry":{"type":"Point","coordinates":[149.086,-35.3947]},"properties":{"type":"static","name":"Wanniassa","premises":"Wanniassa School (senior campus)"}},{"type":"Feature","geometry":{"type":"Point","coordinates":[149.096,-35.392]},"properties":{"type":"static","name":"Wanniassa Hills","premises":"Wanniassa Hills Primary"}},{"type":"Feature","geometry":{"type":"Point","coordinates":[149.06,-35.355]},"properties":{"type":"static","name":"Waramanga","premises":"Arawang Primary"}},{"type":"Feature","geometry":{"type":"Point","coordinates":[149.155,-35.2385]},"properties":{"type":"static","name":"Watson","premises":"Majura Primary"}},{"type":"Feature","geometry":{"type":"Point","coordinates":[149.047,-35.2518]},"properties":{"type":"static","name":"Weetangera","premises":"Weetangera Primary"}},{"type":"Feature","geometry":{"type":"Point","coordinates":[149.052033,-35.341921]},"properties":{"type":"electronic","name":"Weston Creek","premises":"Weston Arcade"}},{"type":"Feature","geometry":{"type":"Point","coordinates":[149.088239,-35.345929]},"properties":{"type":"electronic","name":"Woden","premises":"Westfields Plaza"}},{"type":"Feature","geometry":{"type":"Point","coordinates":[149.103,-35.3069]},"properties":{"type":"static","name":"Yarralumla","premises":"Yarralumla Primary"}}]}